[
  {
    "id": "global-madrid-spain",
    "label": "Madrid, Spain",
    "type": "global_city",
    "city": "Madrid",
    "county": "",
    "state": "",
    "stateCode": "",
    "postalCode": "",
    "country": "Spain",
    "latitude": 40.4168,
    "longitude": -3.7038,
    "population": null,
    "aliases": ["madrid"]
  },
  {
    "id": "global-tenerife-spain",
    "label": "Tenerife, Spain",
    "type": "global_city",
    "city": "Tenerife",
    "county": "",
    "state": "",
    "stateCode": "",
    "postalCode": "",
    "country": "Spain",
    "latitude": 28.2916,
    "longitude": -16.6291,
    "population": null,
    "aliases": ["tenerife", "canary islands", "canarias"]
  },
  {
    "id": "global-granadilla-tenerife-spain",
    "label": "Granadilla, Tenerife, Spain",
    "type": "global_city",
    "city": "Granadilla",
    "county": "",
    "state": "",
    "stateCode": "",
    "postalCode": "",
    "country": "Spain",
    "latitude": 28.1188,
    "longitude": -16.575,
    "population": null,
    "aliases": ["granadilla", "granadilla tenerife", "granadilla de abona"]
  },
  {
    "id": "global-buenos-aires-argentina",
    "label": "Buenos Aires, Argentina",
    "type": "global_city",
    "city": "Buenos Aires",
    "county": "",
    "state": "",
    "stateCode": "",
    "postalCode": "",
    "country": "Argentina",
    "latitude": -34.6037,
    "longitude": -58.3816,
    "population": null,
    "aliases": ["buenos aires"]
  },
  {
    "id": "global-ushuaia-argentina",
    "label": "Ushuaia, Argentina",
    "type": "global_city",
    "city": "Ushuaia",
    "county": "",
    "state": "",
    "stateCode": "",
    "postalCode": "",
    "country": "Argentina",
    "latitude": -54.8019,
    "longitude": -68.303,
    "population": null,
    "aliases": ["ushuaia", "tierra del fuego"]
  },
  {
    "id": "global-patagonia-argentina",
    "label": "Patagonia, Argentina",
    "type": "global_city",
    "city": "Patagonia",
    "county": "",
    "state": "",
    "stateCode": "",
    "postalCode": "",
    "country": "Argentina",
    "latitude": -41.8101,
    "longitude": -68.9063,
    "population": null,
    "aliases": ["patagonia", "argentine patagonia"]
  },
  {
    "id": "global-cape-verde",
    "label": "Cape Verde",
    "type": "global_city",
    "city": "Praia",
    "county": "",
    "state": "",
    "stateCode": "",
    "postalCode": "",
    "country": "Cabo Verde",
    "latitude": 16.5388,
    "longitude": -23.0418,
    "population": null,
    "aliases": ["cape verde", "cabo verde", "praia"]
  },
  {
    "id": "global-rotterdam-netherlands",
    "label": "Rotterdam, Netherlands",
    "type": "global_city",
    "city": "Rotterdam",
    "county": "",
    "state": "",
    "stateCode": "",
    "postalCode": "",
    "country": "Netherlands",
    "latitude": 51.9244,
    "longitude": 4.4777,
    "population": null,
    "aliases": ["rotterdam"]
  },
  {
    "id": "global-paris-france",
    "label": "Paris, France",
    "type": "global_city",
    "city": "Paris",
    "county": "",
    "state": "",
    "stateCode": "",
    "postalCode": "",
    "country": "France",
    "latitude": 48.8566,
    "longitude": 2.3522,
    "population": null,
    "aliases": ["paris"]
  },
  {
    "id": "global-berlin-germany",
    "label": "Berlin, Germany",
    "type": "global_city",
    "city": "Berlin",
    "county": "",
    "state": "",
    "stateCode": "",
    "postalCode": "",
    "country": "Germany",
    "latitude": 52.52,
    "longitude": 13.405,
    "population": null,
    "aliases": ["berlin"]
  }
]
